{
  "type": "FeatureCollection",
  "features": [
    { "type": "Feature", "properties": { "name": "Charles de Gaulle", "country": "FR", "city": "Paris" }, "geometry": { "type": "Point", "coordinates": [2.5479, 49.0097] } },
    { "type": "Feature", "properties": { "name": "JFK Intl", "country": "US", "city": "New York" }, "geometry": { "type": "Point", "coordinates": [-73.7781, 40.6413] } },
    { "type": "Feature", "properties": { "name": "Los Angeles Intl", "country": "US", "city": "Los Angeles" }, "geometry": { "type": "Point", "coordinates": [-118.4085, 33.9416] } },
    { "type": "Feature", "properties": { "name": "O'Hare Intl", "country": "US", "city": "Chicago" }, "geometry": { "type": "Point", "coordinates": [-87.9073, 41.9742] } },
    { "type": "Feature", "properties": { "name": "Beijing Capital", "country": "CN", "city": "Beijing" }, "geometry": { "type": "Point", "coordinates": [116.5871, 40.0799] } },
    { "type": "Feature", "properties": { "name": "Shanghai Pudong", "country": "CN", "city": "Shanghai" }, "geometry": { "type": "Point", "coordinates": [121.8052, 31.1443] } },
    { "type": "Feature", "properties": { "name": "Adolfo Suárez Barajas", "country": "ES", "city": "Madrid" }, "geometry": { "type": "Point", "coordinates": [-3.5672, 40.4839] } },
    { "type": "Feature", "properties": { "name": "Leonardo da Vinci", "country": "IT", "city": "Rome" }, "geometry": { "type": "Point", "coordinates": [12.2389, 41.8003] } },
    { "type": "Feature", "properties": { "name": "Istanbul Airport", "country": "TR", "city": "Istanbul" }, "geometry": { "type": "Point", "coordinates": [28.7419, 41.2751] } },
    { "type": "Feature", "properties": { "name": "Sabiha Gökçen", "country": "TR", "city": "Istanbul" }, "geometry": { "type": "Point", "coordinates": [29.3092, 40.8986] } },
    { "type": "Feature", "properties": { "name": "Heathrow", "country": "GB", "city": "London" }, "geometry": { "type": "Point", "coordinates": [-0.4543, 51.4700] } },
    { "type": "Feature", "properties": { "name": "Frankfurt Airport", "country": "DE", "city": "Frankfurt" }, "geometry": { "type": "Point", "coordinates": [8.5705, 50.0379] } },
    { "type": "Feature", "properties": { "name": "Sheremetyevo Intl", "country": "RU", "city": "Moscow" }, "geometry": { "type": "Point", "coordinates": [37.4146, 55.9726] } },
    { "type": "Feature", "properties": { "name": "Pulkovo Airport", "country": "RU", "city": "St. Petersburg" }, "geometry": { "type": "Point", "coordinates": [30.2625, 59.8003] } },
    { "type": "Feature", "properties": { "name": "Kuala Lumpur Intl", "country": "MY", "city": "Kuala Lumpur" }, "geometry": { "type": "Point", "coordinates": [101.7099, 2.7456] } },
    { "type": "Feature", "properties": { "name": "Benito Juárez Intl", "country": "MX", "city": "Mexico City" }, "geometry": { "type": "Point", "coordinates": [-99.0721, 19.4361] } },
    { "type": "Feature", "properties": { "name": "Cancún Intl", "country": "MX", "city": "Cancún" }, "geometry": { "type": "Point", "coordinates": [-86.8770, 21.0365] } },
    { "type": "Feature", "properties": { "name": "Vienna Intl", "country": "AT", "city": "Vienna" }, "geometry": { "type": "Point", "coordinates": [16.5636, 48.1103] } },
    { "type": "Feature", "properties": { "name": "Hong Kong Intl", "country": "HK", "city": "Hong Kong" }, "geometry": { "type": "Point", "coordinates": [113.9145, 22.3089] } },
    { "type": "Feature", "properties": { "name": "Boryspil Intl", "country": "UA", "city": "Kyiv" }, "geometry": { "type": "Point", "coordinates": [30.8947, 50.3450] } },
    { "type": "Feature", "properties": { "name": "Suvarnabhumi", "country": "TH", "city": "Bangkok" }, "geometry": { "type": "Point", "coordinates": [100.7501, 13.6900] } },
    { "type": "Feature", "properties": { "name": "King Khalid Intl", "country": "SA", "city": "Riyadh" }, "geometry": { "type": "Point", "coordinates": [46.6988, 24.9576] } },
    { "type": "Feature", "properties": { "name": "King Abdulaziz Intl", "country": "SA", "city": "Jeddah" }, "geometry": { "type": "Point", "coordinates": [39.1565, 21.6796] } },
    { "type": "Feature", "properties": { "name": "Athens Intl", "country": "GR", "city": "Athens" }, "geometry": { "type": "Point", "coordinates": [23.9445, 37.9364] } },
    { "type": "Feature", "properties": { "name": "Toronto Pearson", "country": "CA", "city": "Toronto" }, "geometry": { "type": "Point", "coordinates": [-79.6248, 43.6777] } },
    { "type": "Feature", "properties": { "name": "Vancouver Intl", "country": "CA", "city": "Vancouver" }, "geometry": { "type": "Point", "coordinates": [-123.1841, 49.1967] } },
    { "type": "Feature", "properties": { "name": "Warsaw Chopin", "country": "PL", "city": "Warsaw" }, "geometry": { "type": "Point", "coordinates": [20.9679, 52.1657] } },
    { "type": "Feature", "properties": { "name": "Macau Intl", "country": "MO", "city": "Macao" }, "geometry": { "type": "Point", "coordinates": [113.5915, 22.1495] } },
    { "type": "Feature", "properties": { "name": "Amsterdam Schiphol", "country": "NL", "city": "Amsterdam" }, "geometry": { "type": "Point", "coordinates": [4.7639, 52.3081] } },
    { "type": "Feature", "properties": { "name": "Singapore Changi", "country": "SG", "city": "Singapore" }, "geometry": { "type": "Point", "coordinates": [103.9940, 1.3644] } },
    { "type": "Feature", "properties": { "name": "Budapest Ferenc Liszt", "country": "HU", "city": "Budapest" }, "geometry": { "type": "Point", "coordinates": [19.2611, 47.4333] } },
    { "type": "Feature", "properties": { "name": "Zagreb Airport", "country": "HR", "city": "Zagreb" }, "geometry": { "type": "Point", "coordinates": [16.0688, 45.7429] } },
    { "type": "Feature", "properties": { "name": "Incheon Intl", "country": "KR", "city": "Seoul" }, "geometry": { "type": "Point", "coordinates": [126.4407, 37.4602] } },
    { "type": "Feature", "properties": { "name": "Cairo Intl", "country": "EG", "city": "Cairo" }, "geometry": { "type": "Point", "coordinates": [31.4056, 30.1219] } },
    { "type": "Feature", "properties": { "name": "Casablanca Mohammed V", "country": "MA", "city": "Casablanca" }, "geometry": { "type": "Point", "coordinates": [-7.5898, 33.3675] } },
    { "type": "Feature", "properties": { "name": "Václav Havel", "country": "CZ", "city": "Prague" }, "geometry": { "type": "Point", "coordinates": [14.2632, 50.1008] } },
    { "type": "Feature", "properties": { "name": "Zurich Airport", "country": "CH", "city": "Zurich" }, "geometry": { "type": "Point", "coordinates": [8.5481, 47.4582] } },
    { "type": "Feature", "properties": { "name": "OR Tambo Intl", "country": "ZA", "city": "Johannesburg" }, "geometry": { "type": "Point", "coordinates": [28.2460, -26.1392] } },
    { "type": "Feature", "properties": { "name": "Cape Town Intl", "country": "ZA", "city": "Cape Town" }, "geometry": { "type": "Point", "coordinates": [18.6017, -33.9715] } },
    { "type": "Feature", "properties": { "name": "Soekarno-Hatta Intl", "country": "ID", "city": "Jakarta" }, "geometry": { "type": "Point", "coordinates": [106.6559, -6.1256] } },
    { "type": "Feature", "properties": { "name": "Ngurah Rai Intl", "country": "ID", "city": "Bali" }, "geometry": { "type": "Point", "coordinates": [115.1675, -8.7481] } },
    { "type": "Feature", "properties": { "name": "Indira Gandhi Intl", "country": "IN", "city": "Delhi" }, "geometry": { "type": "Point", "coordinates": [77.1003, 28.5562] } },
    { "type": "Feature", "properties": { "name": "Chhatrapati Shivaji Intl", "country": "IN", "city": "Mumbai" }, "geometry": { "type": "Point", "coordinates": [72.8650, 19.0896] } },
    { "type": "Feature", "properties": { "name": "Haneda Airport", "country": "JP", "city": "Tokyo" }, "geometry": { "type": "Point", "coordinates": [139.7797, 35.5494] } },
    { "type": "Feature", "properties": { "name": "Narita Intl", "country": "JP", "city": "Tokyo" }, "geometry": { "type": "Point", "coordinates": [140.3929, 35.7720] } },
    { "type": "Feature", "properties": { "name": "Kansai Intl", "country": "JP", "city": "Osaka" }, "geometry": { "type": "Point", "coordinates": [135.2303, 34.4347] } },
    { "type": "Feature", "properties": { "name": "Tan Son Nhat Intl", "country": "VN", "city": "Ho Chi Minh City" }, "geometry": { "type": "Point", "coordinates": [106.6525, 10.8189] } },
    { "type": "Feature", "properties": { "name": "Noi Bai Intl", "country": "VN", "city": "Hanoi" }, "geometry": { "type": "Point", "coordinates": [105.8048, 21.2212] } },
    { "type": "Feature", "properties": { "name": "Dublin Airport", "country": "IE", "city": "Dublin" }, "geometry": { "type": "Point", "coordinates": [-6.2499, 53.4264] } },
    { "type": "Feature", "properties": { "name": "Henri Coandă Intl", "country": "RO", "city": "Bucharest" }, "geometry": { "type": "Point", "coordinates": [26.0841, 44.5709] } },
    { "type": "Feature", "properties": { "name": "Brussels Airport", "country": "BE", "city": "Brussels" }, "geometry": { "type": "Point", "coordinates": [4.4844, 50.9014] } },
    { "type": "Feature", "properties": { "name": "Copenhagen Airport", "country": "DK", "city": "Copenhagen" }, "geometry": { "type": "Point", "coordinates": [12.6508, 55.6180] } },
    { "type": "Feature", "properties": { "name": "Humberto Delgado Airport", "country": "PT", "city": "Lisbon" }, "geometry": { "type": "Point", "coordinates": [-9.1359, 38.7756] } },
    { "type": "Feature", "properties": { "name": "Sofia Airport", "country": "BG", "city": "Sofia" }, "geometry": { "type": "Point", "coordinates": [23.4028, 42.6952] } },
    { "type": "Feature", "properties": { "name": "Bahrain Intl", "country": "BH", "city": "Manama" }, "geometry": { "type": "Point", "coordinates": [50.6331, 26.2708] } },
    { "type": "Feature", "properties": { "name": "Sydney Kingsford Smith", "country": "AU", "city": "Sydney" }, "geometry": { "type": "Point", "coordinates": [151.1772, -33.9461] } },
    { "type": "Feature", "properties": { "name": "Melbourne Airport", "country": "AU", "city": "Melbourne" }, "geometry": { "type": "Point", "coordinates": [144.8432, -37.6637] } },
    { "type": "Feature", "properties": { "name": "Perth Airport", "country": "AU", "city": "Perth" }, "geometry": { "type": "Point", "coordinates": [115.9672, -31.9403] } },
    { "type": "Feature", "properties": { "name": "Ministro Pistarini (Ezeiza)", "country": "AR", "city": "Buenos Aires" }, "geometry": { "type": "Point", "coordinates": [-58.5358, -34.8222] } },
    { "type": "Feature", "properties": { "name": "Guarulhos Intl", "country": "BR", "city": "São Paulo" }, "geometry": { "type": "Point", "coordinates": [-46.4731, -23.4356] } },
    { "type": "Feature", "properties": { "name": "Galeão Intl", "country": "BR", "city": "Rio de Janeiro" }, "geometry": { "type": "Point", "coordinates": [-43.2505, -22.8100] } },
    { "type": "Feature", "properties": { "name": "Stockholm Arlanda", "country": "SE", "city": "Stockholm" }, "geometry": { "type": "Point", "coordinates": [17.9186, 59.6519] } },
    { "type": "Feature", "properties": { "name": "Oslo Gardermoen", "country": "NO", "city": "Oslo" }, "geometry": { "type": "Point", "coordinates": [11.1004, 60.1975] } },
    { "type": "Feature", "properties": { "name": "Tunis-Carthage Intl", "country": "TN", "city": "Tunis" }, "geometry": { "type": "Point", "coordinates": [10.2272, 36.8510] } },
    { "type": "Feature", "properties": { "name": "Punta Cana Intl", "country": "DO", "city": "Punta Cana" }, "geometry": { "type": "Point", "coordinates": [-68.3634, 18.5674] } },
    { "type": "Feature", "properties": { "name": "Helsinki-Vantaa", "country": "FI", "city": "Helsinki" }, "geometry": { "type": "Point", "coordinates": [24.9633, 60.3172] } },
    { "type": "Feature", "properties": { "name": "Queen Alia Intl", "country": "JO", "city": "Amman" }, "geometry": { "type": "Point", "coordinates": [35.9932, 31.7226] } }
    ]
}